,school,type,district,capacity,capacity_now,capacity_2027,lng,lat,year_2009,year_2010,year_2011,year_2012,year_2013,year_2014,year_2015,year_2016,year_2017,year_2018,year_2019,year_2020,year_2021,year_2022,year_2023,year_2024,year_2025,year_2026,year_2027
0,Ainslie School,primary,North Canberra,533.0,0.707317073,0.848030019,149.1397826,-35.27366131,372.0,390.0,397.0,389.0,370.0,353.0,366.0,355.0,334.0,360.0,357.0,352.0,356.0,377.0,397.0,415.0,423.0,432.0,452.0
1,Alfred Deakin High,high,South Canberra,963.0,0.897196262,0.921079958,149.0946442,-35.32424542,784.0,760.0,740.0,755.0,775.0,783.0,787.0,815.0,887.0,877.0,862.0,877.0,845.0,864.0,867.0,877.0,905.0,884.0,887.0
2,Amaroo School*,primary,Gungahlin,1084.88277,0.852626685,0.751233242,149.1285792,-35.16500612,768.0,760.0,771.0,895.0,941.0,978.0,966.0,934.0,984.0,1106.0,1059.0,1024.0,968.0,925.0,908.0,880.0,844.0,812.0,815.0
3,Amaroo School*,high,Gungahlin,1066.11723,0.852626685,0.745696606,149.1285792,-35.16500612,451.0,470.0,481.0,493.0,535.0,551.0,609.0,630.0,691.0,726.0,800.0,811.0,864.0,909.0,953.0,937.0,896.0,859.0,795.0
4,Aranda Primary,primary,Belconnen,625.0,0.8752,0.8064,149.0803371,-35.25532768,380.0,404.0,416.0,451.0,453.0,463.0,486.0,522.0,555.0,558.0,543.0,567.0,551.0,547.0,535.0,527.0,521.0,518.0,504.0
5,Arawang Primary,primary,Weston Creek,562.0,0.879003559,0.800711744,149.0591816,-35.35471474,370.0,357.0,335.0,298.0,345.0,368.0,393.0,438.0,432.0,453.0,468.0,490.0,487.0,494.0,491.0,484.0,472.0,467.0,450.0
6,Belconnen High,high,Belconnen,600.0,0.976666667,0.983333333,149.0389237,-35.24711455,602.0,528.0,461.0,402.0,384.0,373.0,353.0,382.0,408.0,435.0,462.0,521.0,551.0,586.0,592.0,597.0,592.0,584.0,590.0
7,Bonython Primary,primary,Tuggeranong,514.0,0.725680934,0.76459144,149.0825723,-35.43072602,371.0,371.0,340.0,315.0,289.0,267.0,260.0,275.0,279.0,315.0,349.0,363.0,390.0,373.0,371.0,396.0,389.0,391.0,393.0
8,Calwell High,high,Tuggeranong,674.0,0.618694362,0.630563798,149.1176228,-35.44080813,466.0,478.0,444.0,413.0,397.0,359.0,344.0,323.0,352.0,366.0,387.0,400.0,419.0,417.0,420.0,420.0,423.0,428.0,425.0
9,Calwell Primary,primary,Tuggeranong,525.0,0.512380952,0.51047619,149.1085618,-35.43861009,382.0,329.0,284.0,278.0,256.0,264.0,255.0,237.0,220.0,245.0,250.0,252.0,267.0,269.0,278.0,284.0,279.0,277.0,268.0
10,Campbell High,high,North Canberra,831.0,0.773766546,0.853188929,149.14778,-35.2780636,613.0,646.0,668.0,692.0,718.0,741.0,723.0,721.0,728.0,719.0,743.0,704.0,677.0,643.0,632.0,634.0,672.0,708.0,709.0
11,Campbell Primary,primary,North Canberra,450.0,0.657777778,0.691111111,149.1560035,-35.29010386,269.0,248.0,249.0,268.0,252.0,246.0,272.0,282.0,320.0,335.0,366.0,327.0,325.0,296.0,296.0,290.0,299.0,301.0,311.0
12,Canberra High,high,Belconnen,985.0,0.908629442,0.924873096,149.0744475,-35.25154382,588.0,572.0,574.0,643.0,753.0,780.0,813.0,813.0,837.0,838.0,871.0,869.0,855.0,895.0,901.0,903.0,907.0,909.0,911.0
13,Caroline Chisholm School*,high,Tuggeranong,799.3422619,0.524180967,0.515423767,149.1215543,-35.41779399,428.0,331.0,293.0,283.0,276.0,278.0,318.0,331.0,324.0,348.0,378.0,389.0,396.0,419.0,410.0,419.0,421.0,412.0,412.0
14,Caroline Chisholm School*,primary,Tuggeranong,482.6577381,0.524180967,0.430947198,149.1215543,-35.41779399,210.0,192.0,188.0,193.0,222.0,245.0,256.0,280.0,310.0,315.0,295.0,285.0,269.0,253.0,239.0,228.0,223.0,216.0,208.0
15,Chapman Primary,primary,Weston Creek,633.0,0.879936809,0.846761453,149.0427761,-35.35651602,436.0,462.0,466.0,489.0,501.0,506.0,511.0,547.0,558.0,567.0,560.0,540.0,538.0,557.0,549.0,554.0,550.0,547.0,536.0
16,Charles Conder Primary,primary,Tuggeranong,547.0,0.808043876,0.791590494,149.0983408,-35.46467101,391.0,365.0,308.0,305.0,265.0,247.0,270.0,265.0,286.0,328.0,357.0,412.0,440.0,442.0,448.0,457.0,449.0,449.0,433.0
17,Charles Weston School,primary,Molonglo,800.0,0.635,0.76875,149.0411924,-35.31971486,,,,,,,,110.0,197.0,288.0,394.0,485.0,471.0,508.0,533.0,558.0,580.0,596.0,615.0
18,Charnwood-Dunlop School,primary,Belconnen,496.0,0.796370968,0.77016129,149.0362433,-35.1986762,242.0,246.0,251.0,285.0,314.0,295.0,282.0,246.0,278.0,303.0,318.0,339.0,353.0,395.0,402.0,399.0,394.0,393.0,382.0
19,Curtin Primary,primary,Woden Valley,612.0,0.727124183,0.709150327,149.0797825,-35.33130384,395.0,378.0,351.0,404.0,424.0,425.0,448.0,465.0,500.0,512.0,492.0,470.0,479.0,445.0,445.0,434.0,429.0,430.0,434.0
20,Dickson College,college,North Canberra,1091.0,0.725022915,0.760769936,149.1536633,-35.24927318,754.0,710.0,720.0,751.0,798.0,819.0,867.0,820.0,838.0,841.0,746.0,723.0,742.0,769.0,807.0,788.0,782.0,782.0,830.0
21,Duffy Primary,primary,Weston Creek,541.0,0.71349353,0.689463956,149.0324837,-35.33514934,185.0,205.0,233.0,294.0,304.0,336.0,316.0,318.0,345.0,384.0,391.0,390.0,382.0,386.0,394.0,390.0,383.0,379.0,373.0
22,Erindale College,college,Tuggeranong,955.0,0.641884817,0.698429319,149.0965637,-35.40304265,769.0,716.0,624.0,588.0,530.0,525.0,533.0,520.0,490.0,438.0,471.0,604.0,579.0,554.0,650.0,655.0,654.0,663.0,667.0
23,Evatt Primary,primary,Belconnen,503.0,0.560636183,0.560636183,149.0757089,-35.20697919,296.0,301.0,287.0,294.0,282.0,256.0,262.0,285.0,269.0,274.0,269.0,289.0,297.0,282.0,294.0,292.0,287.0,288.0,282.0
24,Evelyn Scott School*,primary,Molonglo,600.0,0.398333333,1.0,149.0273716,-35.30678179,,,,,,,,,,,,,124.0,239.0,311.0,383.0,452.0,526.0,600.0
25,Evelyn Scott School*,high,Molonglo,,,,149.0273716,-35.30678179,,,,,,,,,,,,,,,62.0,130.0,209.0,300.0,359.0
26,Fadden Primary,primary,Tuggeranong,433.0,0.575057737,0.542725173,149.118187,-35.40377215,286.0,266.0,275.0,289.0,300.0,304.0,328.0,325.0,307.0,307.0,286.0,294.0,269.0,249.0,254.0,251.0,252.0,244.0,235.0
27,Farrer Primary,primary,Woden Valley,456.0,0.664473684,0.655701754,149.1073121,-35.37858972,286.0,284.0,287.0,278.0,297.0,290.0,305.0,305.0,320.0,331.0,345.0,349.0,334.0,303.0,306.0,301.0,299.0,303.0,299.0
28,Florey Primary,primary,Belconnen,583.0,0.716981132,0.737564322,149.0528916,-35.22632958,333.0,326.0,340.0,359.0,372.0,406.0,431.0,442.0,431.0,427.0,425.0,409.0,422.0,418.0,423.0,425.0,428.0,427.0,430.0
29,Forrest Primary,primary,South Canberra,733.0,0.739427012,0.809004093,149.1257265,-35.3145078,419.0,418.0,452.0,453.0,438.0,456.0,472.0,482.0,476.0,507.0,537.0,563.0,530.0,542.0,562.0,568.0,576.0,584.0,593.0
30,Franklin School,primary,Gungahlin,533.0,0.789868668,0.636022514,149.1453717,-35.19625305,,,,,20.0,81.0,113.0,147.0,184.0,181.0,252.0,310.0,363.0,421.0,410.0,394.0,375.0,361.0,339.0
31,Fraser Primary,primary,Belconnen,583.0,0.929674099,0.85077187,149.0431444,-35.19197227,383.0,378.0,357.0,353.0,371.0,371.0,378.0,401.0,443.0,467.0,492.0,520.0,530.0,542.0,534.0,530.0,513.0,502.0,496.0
32,Garran Primary,primary,Woden Valley,783.0,0.75734355,0.740740741,149.1030647,-35.34389574,427.0,486.0,469.0,509.0,526.0,534.0,553.0,551.0,581.0,583.0,595.0,612.0,602.0,593.0,589.0,584.0,580.0,580.0,580.0
33,Gilmore Primary,primary,Tuggeranong,310.0,0.390322581,0.4,149.1351347,-35.41907007,208.0,202.0,199.0,185.0,138.0,123.0,110.0,93.0,99.0,106.0,110.0,116.0,134.0,121.0,119.0,128.0,125.0,127.0,124.0
34,Giralang Primary,primary,Belconnen,357.0,0.826330532,0.708683473,149.0948908,-35.21370641,125.0,134.0,141.0,133.0,156.0,169.0,220.0,269.0,290.0,289.0,295.0,291.0,301.0,295.0,287.0,276.0,275.0,267.0,253.0
35,Gold Creek School*,high,Gungahlin,900.7901444,0.664971751,0.720478575,149.0938639,-35.17959263,516.0,585.0,571.0,556.0,522.0,478.0,501.0,549.0,561.0,574.0,584.0,575.0,558.0,599.0,615.0,620.0,640.0,646.0,649.0
36,Gold Creek School*,primary,Gungahlin,869.2098556,0.664971751,0.659219401,149.0938639,-35.17959263,420.0,417.0,394.0,434.0,449.0,437.0,471.0,540.0,589.0,596.0,572.0,568.0,582.0,578.0,584.0,579.0,582.0,579.0,573.0
37,Gordon Primary,primary,Tuggeranong,618.0,0.731391586,0.684466019,149.0866509,-35.45643516,407.0,360.0,357.0,392.0,371.0,383.0,407.0,410.0,411.0,412.0,426.0,432.0,437.0,452.0,437.0,441.0,437.0,432.0,423.0
38,Gowrie Primary,primary,Tuggeranong,495.0,0.56969697,0.525252525,149.1107899,-35.41322885,178.0,186.0,200.0,191.0,182.0,212.0,223.0,238.0,249.0,270.0,290.0,289.0,300.0,282.0,285.0,275.0,274.0,268.0,260.0
39,Gungahlin College,college,Gungahlin,1280.0,0.878125,1.12578125,149.1310174,-35.18539477,,,308.0,672.0,724.0,898.0,968.0,1028.0,1144.0,1142.0,1118.0,1158.0,1136.0,1104.0,1248.0,1286.0,1301.0,1372.0,1441.0
40,Harrison School*,high,Gungahlin,841.874541,0.747142204,0.678248328,149.151759,-35.19920681,,,39.0,127.0,240.0,322.0,400.0,447.0,470.0,521.0,591.0,602.0,636.0,629.0,646.0,601.0,585.0,576.0,571.0
41,Harrison School*,primary,Gungahlin,1345.125459,0.747142204,0.66610887,149.151759,-35.19920681,426.0,552.0,690.0,802.0,877.0,914.0,1014.0,1094.0,1160.0,1154.0,1153.0,1145.0,1149.0,1005.0,998.0,976.0,942.0,918.0,896.0
42,Hawker College,college,Belconnen,893.0,0.680851064,0.749160134,149.0326578,-35.24586131,752.0,764.0,735.0,567.0,503.0,449.0,422.0,436.0,430.0,482.0,520.0,453.0,532.0,608.0,635.0,634.0,645.0,671.0,669.0
43,Hawker Primary,primary,Belconnen,350.0,0.968571429,0.888571429,149.0347227,-35.24988483,259.0,262.0,289.0,279.0,287.0,281.0,313.0,334.0,343.0,347.0,344.0,345.0,330.0,339.0,338.0,326.0,317.0,315.0,311.0
44,Hughes Primary,primary,Woden Valley,576.0,0.795138889,0.760416667,149.0928965,-35.3315101,299.0,293.0,281.0,283.0,301.0,366.0,392.0,422.0,421.0,431.0,417.0,412.0,397.0,458.0,454.0,457.0,452.0,444.0,438.0
45,Isabella Plains Early Childhood,primary,Tuggeranong,189.0,0.613756614,0.518518519,149.0877543,-35.4281477,23.0,61.0,79.0,92.0,97.0,101.0,99.0,105.0,115.0,110.0,109.0,104.0,111.0,116.0,108.0,104.0,102.0,101.0,98.0
46,Kaleen Primary,primary,Belconnen,558.0,0.822580645,0.740143369,149.1132772,-35.22436613,436.0,453.0,443.0,472.0,484.0,495.0,500.0,555.0,533.0,510.0,472.0,465.0,471.0,459.0,437.0,428.0,425.0,418.0,413.0
47,Kingsford Smith School*,primary,Belconnen,550.8118081,0.642687747,0.724385342,149.0209436,-35.2278465,531.0,512.0,493.0,504.0,480.0,471.0,468.0,483.0,474.0,462.0,458.0,444.0,409.0,354.0,367.0,385.0,372.0,386.0,399.0
48,Kingsford Smith School*,high,Belconnen,714.1881919,0.642687747,0.606282777,149.0209436,-35.2278465,126.0,244.0,320.0,376.0,372.0,339.0,335.0,317.0,332.0,348.0,413.0,434.0,447.0,459.0,452.0,442.0,431.0,423.0,433.0
49,Lake Tuggeranong College,college,Tuggeranong,928.0,0.623922414,0.811422414,149.0682606,-35.41375357,821.0,785.0,805.0,874.0,848.0,776.0,809.0,783.0,738.0,715.0,670.0,645.0,615.0,579.0,664.0,712.0,715.0,746.0,753.0
50,Lanyon High,high,Tuggeranong,795.0,0.553459119,0.628930818,149.0952554,-35.46046148,619.0,636.0,561.0,531.0,469.0,426.0,355.0,341.0,333.0,350.0,369.0,372.0,402.0,440.0,473.0,479.0,503.0,493.0,500.0
51,Latham Primary,primary,Belconnen,438.0,0.803652968,0.801369863,149.0345576,-35.21980311,219.0,236.0,242.0,253.0,264.0,268.0,288.0,277.0,270.0,269.0,304.0,330.0,332.0,352.0,369.0,382.0,375.0,367.0,351.0
52,Lyneham High,high,North Canberra,1126.0,0.919182948,0.978685613,149.1305519,-35.25245947,999.0,1018.0,1035.0,1049.0,1068.0,1054.0,1050.0,1065.0,1084.0,1119.0,1101.0,1076.0,1078.0,1035.0,1088.0,1091.0,1115.0,1119.0,1102.0
53,Lyneham Primary,primary,North Canberra,625.0,0.768,0.7184,149.1256668,-35.25145814,397.0,359.0,358.0,363.0,349.0,359.0,400.0,422.0,430.0,455.0,470.0,455.0,469.0,480.0,470.0,467.0,458.0,448.0,449.0
54,Lyons Early Childhood,primary,Woden Valley,126.0,0.73015873,0.76984127,149.0743474,-35.3415836,7.0,18.0,53.0,64.0,90.0,105.0,113.0,104.0,90.0,78.0,70.0,68.0,80.0,92.0,88.0,92.0,96.0,97.0,97.0
55,Macgregor Primary,primary,Belconnen,715.0,0.73006993,0.686713287,149.0121176,-35.21263112,296.0,319.0,336.0,358.0,379.0,400.0,450.0,494.0,503.0,507.0,518.0,524.0,539.0,522.0,507.0,513.0,515.0,500.0,491.0
56,Macquarie Primary,primary,Belconnen,433.0,0.702078522,0.692840647,149.0599266,-35.25134444,245.0,242.0,242.0,273.0,301.0,341.0,331.0,337.0,365.0,353.0,329.0,305.0,303.0,304.0,306.0,299.0,299.0,296.0,300.0
57,Majura Primary,primary,North Canberra,906.0,0.798013245,0.857615894,149.1546278,-35.23838146,373.0,431.0,455.0,509.0,490.0,505.0,511.0,516.0,544.0,591.0,601.0,673.0,718.0,723.0,741.0,760.0,754.0,767.0,777.0
58,Margaret Hendry School,primary,Gungahlin,600.0,0.811666667,1.431666667,149.1092086,-35.15087484,,,,,,,,,,,142.0,357.0,473.0,487.0,587.0,683.0,769.0,824.0,859.0
59,Maribyrnong Primary,primary,Belconnen,689.0,0.679245283,0.708272859,149.1033401,-35.2346434,228.0,217.0,214.0,206.0,212.0,254.0,292.0,292.0,344.0,415.0,470.0,500.0,471.0,468.0,466.0,483.0,488.0,486.0,488.0
60,Mawson Primary,primary,Woden Valley,533.0,0.893058161,0.909943715,149.0977706,-35.35849341,166.0,156.0,158.0,150.0,174.0,238.0,290.0,359.0,395.0,413.0,430.0,428.0,442.0,476.0,464.0,475.0,476.0,480.0,485.0
61,Melba Copland Secondary*,college,Belconnen,297.2037862,0.602280349,0.925291039,149.0588855,-35.21239942,292.0,325.0,307.0,277.0,206.0,164.0,174.0,158.0,184.0,186.0,166.0,229.0,202.0,179.0,210.0,230.0,254.0,285.0,275.0
62,Melba Copland Secondary*,high,Belconnen,1193.796214,0.602280349,0.649189527,149.0588855,-35.21239942,682.0,646.0,587.0,480.0,423.0,370.0,386.0,406.0,421.0,465.0,500.0,534.0,619.0,719.0,752.0,767.0,772.0,747.0,775.0
63,Melrose High,high,Woden Valley,1058.0,0.77221172,0.822306238,149.0885804,-35.36272469,815.0,827.0,783.0,754.0,723.0,685.0,701.0,741.0,712.0,810.0,801.0,814.0,839.0,817.0,844.0,845.0,864.0,873.0,870.0
64,Miles Franklin Primary,primary,Belconnen,558.0,0.869175627,0.756272401,149.0668523,-35.21300596,366.0,351.0,351.0,384.0,398.0,404.0,422.0,447.0,482.0,503.0,500.0,513.0,498.0,485.0,479.0,466.0,449.0,437.0,422.0
65,Monash Primary,primary,Tuggeranong,516.0,0.858527132,0.833333333,149.0895086,-35.41460532,411.0,385.0,389.0,369.0,366.0,394.0,414.0,391.0,393.0,384.0,405.0,432.0,426.0,443.0,444.0,443.0,447.0,439.0,430.0
66,Mount Rogers Primary,primary,Belconnen,633.0,0.812006319,0.710900474,149.0557389,-35.20833156,191.0,200.0,239.0,280.0,314.0,357.0,382.0,389.0,428.0,445.0,480.0,501.0,513.0,514.0,517.0,503.0,494.0,468.0,450.0
67,Mount Stromlo High,high,Weston Creek,1075.0,0.814883721,0.787906977,149.0548136,-35.35496385,,,,,,600.0,569.0,590.0,642.0,661.0,720.0,766.0,809.0,876.0,860.0,866.0,860.0,836.0,847.0
68,Namadgi School*,high,Tuggeranong,485.3116279,0.52955665,0.564585689,149.0674511,-35.39235015,,,55.0,119.0,174.0,210.0,213.0,213.0,212.0,246.0,258.0,262.0,276.0,257.0,257.0,261.0,263.0,272.0,274.0
69,Namadgi School*,primary,Tuggeranong,732.6883721,0.52955665,0.496800569,149.0674511,-35.39235015,,,320.0,379.0,385.0,385.0,395.0,393.0,390.0,383.0,375.0,368.0,374.0,388.0,383.0,389.0,384.0,374.0,364.0
70,Narrabundah College,college,South Canberra,1102.0,0.87477314,0.945553539,149.1472069,-35.33619656,904.0,925.0,950.0,946.0,945.0,935.0,944.0,982.0,982.0,939.0,931.0,956.0,967.0,964.0,975.0,1002.0,1028.0,1036.0,1042.0
71,Narrabundah Early Childhood,primary,South Canberra,105.0,0.571428571,0.685714286,149.1486745,-35.3287917,14.0,38.0,56.0,61.0,65.0,54.0,58.0,59.0,68.0,68.0,77.0,57.0,63.0,60.0,65.0,69.0,71.0,71.0,72.0
72,Neville Bonner Primary,primary,Gungahlin,1112.0,0.626798561,0.507194245,149.1400716,-35.16239816,,,,,127.0,248.0,352.0,444.0,553.0,651.0,719.0,740.0,744.0,697.0,659.0,635.0,609.0,583.0,564.0
73,Ngunnawal Primary,primary,Gungahlin,724.0,0.892265193,0.848066298,149.111538,-35.16893935,430.0,425.0,453.0,475.0,479.0,545.0,551.0,600.0,593.0,562.0,588.0,600.0,626.0,646.0,636.0,632.0,631.0,626.0,614.0
74,North Ainslie Primary,primary,North Canberra,735.0,0.808163265,0.756462585,149.1470269,-35.25443062,319.0,341.0,345.0,361.0,400.0,481.0,468.0,530.0,557.0,589.0,609.0,637.0,615.0,594.0,580.0,572.0,560.0,563.0,556.0
75,O'Connor Cooperative,primary,North Canberra,84.0,0.630952381,0.666666667,149.118447,-35.261107,56.0,58.0,59.0,56.0,56.0,55.0,52.0,56.0,51.0,60.0,55.0,45.0,48.0,53.0,57.0,56.0,54.0,54.0,56.0
76,Palmerston District Primary,primary,Gungahlin,841.0,0.838287753,0.822829964,149.1208335,-35.19745744,358.0,370.0,343.0,372.0,370.0,375.0,417.0,456.0,507.0,567.0,600.0,681.0,736.0,705.0,709.0,716.0,712.0,703.0,692.0
77,Red Hill Primary,primary,South Canberra,833.0,0.903961585,1.003601441,149.1332282,-35.33946042,538.0,582.0,606.0,572.0,550.0,577.0,576.0,623.0,614.0,641.0,702.0,717.0,744.0,753.0,761.0,783.0,805.0,827.0,836.0
78,Richardson Primary,primary,Tuggeranong,358.0,0.427374302,0.416201117,149.1142897,-35.42882461,200.0,189.0,184.0,168.0,174.0,158.0,146.0,151.0,136.0,132.0,132.0,126.0,136.0,153.0,160.0,161.0,153.0,150.0,149.0
79,Southern Cross Early Childhood,primary,Belconnen,147.0,1.0,1.027210884,149.0349757,-35.2319682,31.0,49.0,70.0,103.0,113.0,125.0,123.0,123.0,116.0,134.0,133.0,125.0,131.0,147.0,146.0,145.0,145.0,149.0,151.0
80,Taylor Primary,primary,Tuggeranong,363.0,0.876033058,0.694214876,149.0638516,-35.37800779,214.0,206.0,179.0,171.0,160.0,189.0,191.0,219.0,261.0,292.0,303.0,312.0,326.0,318.0,299.0,285.0,278.0,261.0,252.0
81,Telopea Park School,high,South Canberra,1622.0,0.612207152,0.62946979,149.1336782,-35.3136976,697.0,698.0,704.0,741.0,743.0,781.0,791.0,837.0,856.0,852.0,879.0,932.0,970.0,993.0,1022.0,1038.0,1025.0,1023.0,1021.0
82,The Canberra College,college,Woden Valley,1193.0,0.896060352,1.042749371,149.0892359,-35.34040281,902.0,930.0,968.0,969.0,970.0,1047.0,1062.0,1040.0,1146.0,1164.0,1130.0,1143.0,1195.0,1168.0,1113.0,1148.0,1155.0,1189.0,1244.0
83,Theodore Primary,primary,Tuggeranong,433.0,0.595842956,0.496535797,149.1233471,-35.44765162,310.0,277.0,262.0,263.0,257.0,251.0,247.0,280.0,319.0,346.0,338.0,281.0,261.0,258.0,248.0,238.0,230.0,219.0,215.0
84,Throsby School,primary,Gungahlin,450.0,0.266666667,1.14,149.1649482,-35.19316702,,,,,,,,,,,,,,120.0,231.0,316.0,400.0,461.0,513.0
85,Torrens Primary,primary,Woden Valley,583.0,0.728987993,0.79245283,149.0913969,-35.37131892,414.0,395.0,388.0,401.0,400.0,402.0,410.0,434.0,437.0,445.0,463.0,452.0,467.0,425.0,428.0,438.0,451.0,456.0,462.0
86,Turner School,primary,North Canberra,573.0,0.778359511,0.827225131,149.1261163,-35.26518651,456.0,467.0,458.0,467.0,486.0,478.0,504.0,521.0,503.0,485.0,492.0,495.0,463.0,446.0,458.0,457.0,452.0,462.0,474.0
87,UC High Kaleen,high,Belconnen,657.0,0.780821918,0.802130898,149.101149,-35.22532541,212.0,210.0,208.0,196.0,199.0,216.0,230.0,267.0,272.0,340.0,376.0,431.0,491.0,513.0,520.0,538.0,531.0,526.0,527.0
88,UC SSC Lake Ginninderra,college,Belconnen,825.0,0.80969697,0.949090909,149.073755,-35.2390998,681.0,786.0,569.0,423.0,481.0,583.0,613.0,657.0,668.0,565.0,629.0,701.0,664.0,664.0,726.0,742.0,749.0,775.0,783.0
89,Wanniassa Hills Primary,primary,Tuggeranong,608.0,0.598684211,0.518092105,149.0960595,-35.39287476,349.0,368.0,358.0,333.0,357.0,364.0,352.0,342.0,372.0,378.0,370.0,397.0,369.0,364.0,349.0,345.0,324.0,321.0,315.0
90,Wanniassa School*,primary,Tuggeranong,391.4837398,149.0856895,-35.3984307,149.0960595,-35.39287476,205.0,212.0,213.0,211.0,203.0,210.0,215.0,209.0,233.0,226.0,230.0,230.0,215.0,206.0,213.0,209.0,211.0,211.0,211.0
91,Wanniassa School*,high,Tuggeranong,543.5162602,0.526203209,0.482046296,149.0858288,-35.39488128,318.0,321.0,271.0,228.0,215.0,205.0,206.0,189.0,175.0,192.0,214.0,213.0,265.0,286.0,273.0,281.0,269.0,261.0,262.0
92,Weetangera Primary,primary,Belconnen,585.0,0.811965812,0.866666667,149.0476249,-35.25195848,328.0,355.0,347.0,357.0,398.0,377.0,392.0,388.0,401.0,427.0,426.0,465.0,479.0,475.0,484.0,489.0,495.0,504.0,507.0
93,Yarralumla Primary,primary,South Canberra,483.0,0.751552795,0.714285714,149.1027194,-35.30677558,202.0,199.0,186.0,198.0,245.0,276.0,300.0,304.0,336.0,382.0,382.0,391.0,392.0,363.0,375.0,360.0,354.0,351.0,345.0
94,new high in Kenny,high,Gungahlin,,,,,,,,,,,,,,,,,,,,,143.0,259.0,355.0,444.0
95,new high in Taylor,high,Gungahlin,,,,,,,,,,,,,,,,,,,,,97.0,188.0,281.0,366.0
96,new primary in Strathnairn,primary,Belconnen,,,,,,,,,,,,,,,,,,,,,,43.0,97.0,160.0
